시도,시군구,어린이집명,어린이집유형구분,운영현황,우편번호,주소,어린이집전화번호,어린이집팩스번호,보육실수,보육실면적,놀이터수,보육교직원수,정원수,현원수,위도,경도,통학차량운영여부,홈페이지주소,인가일자,휴지시작일자,휴지종료일자,폐지일자
경상남도,김해시,신나는어린이집,민간,정상,50895,경상남도 김해시 평전로 11 (외동),055-334-4964,055-321-4964,11,518,1,28,196,133,35.23359245,128.8511808,운영,,1993-03-15,,,
경상남도,김해시,연두어린이집,민간,정상,50934,"경상남도 김해시 활천로6번길 41 (삼정동, 613-21)",055-329-6780,055-329-6781,7,169,0,9,49,28,35.22866824843584,128.89845017634485,운영,,2005-07-28,,,
경상남도,김해시,원광어린이집,법인·단체등,정상,50886,경상남도 김해시 분성로3번길 65 (외동),055-335-3485,055-321-3090,4,121,1,6,39,17,35.23675725,128.8523334,운영,,1996-05-28,,,
경상남도,김해시,한림어린이집,국공립,정상,50848,경상남도 김해시 한림면 한림로442번길 29-1 ,055-342-7960,055-345-2232,5,188,1,7,52,37,35.32484217,128.8030166,운영,http//cafe.naver.com/hanrim3427960,1995-05-23,,,
경상남도,김해시,연지어린이집,가정,정상,50910,경상남도 김해시 구산로10번길 21-28 ,055-324-3933,055-334-0979,3,74,1,7,20,15,35.24817788,128.871447,운영,,2006-03-02,,,
경상남도,김해시,동그라미어린이집,가정,정상,50952,"경상남도 김해시 내외로 55 309동 103호(내동, 동아아파트)",055-324-3748,055-324-3741,5,90,0,13,20,20,35.23641994,128.8638042,운영,cafe.daum.net/csy3749,1997-05-23,,,
경상남도,김해시,동성자연어린이집,민간,정상,50817,경상남도 김해시 삼안로195번길 18-4 동성아파트단지내,055-327-9661,055-327-9661,3,126,0,5,39,15,35.24638275,128.9115248,운영,,2006-02-28,,,
경상남도,김해시,진영리라어린이집,민간,정상,50867,경상남도 김해시 진영읍 진영산복로 88-19 ,055-343-4676,055-346-4676,6,345,2,12,133,90,35.30079077,128.7270144,운영,,2002-03-18,,,
경상남도,김해시,청솔어린이집,사회복지법인,정상,50871,경상남도 김해시 진영읍 하계로 40 청솔어린이집,055-342-1909,055-342-1905,6,204,1,7,75,33,35.28897742,128.7101169,운영,,2002-01-10,,,
경상남도,김해시,삼성숲속요정어린이집,민간,정상,50947,경상남도 김해시 경원로 83 관리동1층,055-324-9390,055-314-9391,5,122,0,8,45,35,35.23697306,128.8693902,운영,,1997-03-31,,,
경상남도,김해시,노아어린이집,가정,정상,50862,경상남도 김해시 진영읍 장등로19번길 18 208동 101호,055-342-4020,055-909-4010,3,62,0,6,20,13,35.3085834,128.7329738,운영,,2006-03-20,,,
경상남도,김해시,인제대학교부설인제어린이집,법인·단체등,정상,50834,경상남도 김해시 인제로 197 인제대학교 하연관(A동) 2층 인제어린이집,055-320-3427,055-322-7908,5,232,1,7,74,37,35.24922128,128.9017704,운영,https://cafe.daum.net/ijkids,1998-04-01,,,
경상남도,김해시,진영어린이집,국공립,정상,50864,경상남도 김해시 진영읍 여래로19번길 10-3 ,055-345-7247,055-343-7247,5,233,1,13,88,82,35.30522038,128.7377059,운영,home.gneducare.kr/jyc7247,1991-07-01,,,
경상남도,김해시,진영엘림어린이집,민간,재개,50867,경상남도 김해시 진영읍 진영로26번길 19-1 해비치어린이집,055-345-7180,--,3,89,0,8,27,24,35.30359625,128.7179032,운영,,2007-08-20,,,
경상남도,김해시,하늘꿈어린이집,가정,정상,50862,"경상남도 김해시 진영읍 장등로 55 112동 101호(, 중흥에스클래스진영1단지아파트)",055-342-7879,055-342-7876,4,83,0,6,19,18,35.26998815,128.7577409,운영,,2006-03-13,,,
경상남도,김해시,서부어린이집,국공립,정상,50939,경상남도 김해시 전하로208번길 7-13 ,055-333-4043,055-333-4093,5,233,2,12,90,61,35.22272627,128.8708069,운영,,1992-01-10,,,
경상남도,김해시,해솔어린이집,민간,정상,50838,경상남도 김해시 활천로 181 어방동680번지 동원아파트관리동내,055-325-5885,055-325-5883,4,197,1,12,57,45,35.24150342,128.9002204,운영,,1999-01-04,,,
경상남도,김해시,늘사랑어린이집,사회복지법인,정상,50837,경상남도 김해시 인제로125번길 21-1 ,055-335-1339,055-336-8008,11,323,1,18,49,33,35.24114547,128.9028962,운영,alwayslove.org,2004-10-06,,,
경상남도,김해시,아이사랑어린이집,민간,정상,50812,경상남도 김해시 삼안로310번길 9 (삼방동),055-321-5795,055-321-5796,7,272,1,11,90,37,35.25274863,128.9047599,운영,isarang90@hanmail.net,1994-09-24,,,
경상남도,김해시,셀라어린이집,가정,정상,50956,경상남도 김해시 금관대로1180번길 74 (외동),055-321-9866,055-321-9866,4,95,0,11,20,18,35.23145386,128.8597945,운영,,2003-06-11,,,
경상남도,김해시,한국창의어린이집,민간,정상,50957,경상남도 김해시 분성로 155 한국2차관리동 한국창의어린이집,055-326-7171,055-326-0590,11,402,1,23,152,117,35.2317508,128.8670714,운영,,1999-04-15,,,
경상남도,김해시,진영다솔어린이집,민간,정상,50867,경상남도 김해시 진영읍 진영로120번길 2-34 ,055-345-0088,055-345-3188,4,136,0,6,39,28,35.3026171,128.7254969,운영,,2005-01-21,,,
경상남도,김해시,예은어린이집,민간,정상,50962,경상남도 김해시 전하로 287-12 ,055-323-0081,055-323-2422,7,211,1,13,77,65,35.228848,128.87042,운영,,2003-10-29,,,
경상남도,김해시,한성어린이집,민간,정상,50929,경상남도 김해시 인제로51번길 54-10 ,055-321-1555,055-323-5341,6,344,2,13,99,88,35.23325871,128.8992097,운영,,2003-01-03,,,
경상남도,김해시,아이또래어린이집,가정,정상,50957,"경상남도 김해시 분성로 155 318동 103호(외동, 한국2차아파트)",055-909-1953,055-326-1973,3,51,0,7,16,12,35.23074985166204,128.86449453562417,미운영,,2004-11-17,,,
경상남도,김해시,유앤아이어린이집,민간,재개,50904,경상남도 김해시 구산로5번길 71 관리동,055-324-1145,055-323-1146,4,94,0,10,29,28,35.25666804,128.8680653,운영,,2005-01-31,,,
경상남도,김해시,싱글벙글어린이집,가정,정상,50949,경상남도 김해시 우암로 106 건영아파트 관리동,055-326-1919,055-337-7713,5,138,0,3,20,3,35.23945284,128.8639704,운영,wjddms1255@hanmail.net,1999-10-20,,,
경상남도,김해시,봄봄어린이집,가정,정상,50947,"경상남도 김해시 경원로 83 205동 103호(내동, 삼성)",055-324-1127,000-0000-0000,4,96,0,7,20,17,35.23697306,128.8693902,운영,,2008-06-19,,,
경상남도,김해시,참벗어린이집,사회복지법인,정상,50868,경상남도 김해시 진영읍 하계로 338-20 (참벗어린이집),055-343-3508,055-342-2163,7,242,1,10,92,52,35.29104556940267,128.73672566329134,운영,,2001-07-01,,,
경상남도,김해시,사랑어린이집,민간,정상,50908,경상남도 김해시 가락로 242-22 ,055-322-1595,055-322-2599,12,457,1,22,161,148,35.24721633,128.8756605,운영,,1994-11-17,,,
경상남도,김해시,노정화예능어린이집,민간,정상,50841,경상남도 김해시 활천로 116-9 ,055-336-1199,055-312-1977,10,238,1,13,86,71,35.23645378,128.8962193,운영,,1995-10-24,,,
경상남도,김해시,김해큰세상어린이집,민간,정상,50839,경상남도 김해시 활천로208번길 27-1 ,055-332-9306,055-321-9306,10,342,2,14,120,76,35.23985442,128.9014788,운영,http://cafe.daum.net/bigworld9306,1997-05-07,,,
경상남도,김해시,미소하루어린이집,민간,정상,50907,경상남도 김해시 가락로294번길 7 구산4주공아파트 관리실 내,055-339-0600,055-339-0600,4,129,0,8,27,24,35.25224158,128.873041,미운영,,1999-04-21,,,
경상남도,김해시,김해덕산어린이집,민간,정상,50953,"경상남도 김해시 함박로 121 1260동 1호(외동, 덕산베스트타운)",055-322-8477,070-4009-3133,5,143,1,7,64,30,35.23227414,128.8674999,운영,,1997-10-10,,,
경상남도,김해시,아가랑어린이집,민간,정상,50893,경상남도 김해시 평전로94번길 9-31 ,055-336-0023,055-338-3523,5,172,0,6,46,12,35.23925877,128.8584332,운영,,2005-12-13,,,
경상남도,김해시,천사어린이집,민간,정상,50867,경상남도 김해시 진영읍 진영로26번길 19 ,055-343-5940,055-343-5940,5,386,3,14,92,82,35.30341673,128.7177762,운영,,2001-06-01,,,
경상남도,김해시,엄마손에코어린이집,민간,정상,50907,경상남도 김해시 가락로294번길 18 구산3주공관리소 1층,055-339-4283,055-339-4283,3,80,0,9,26,25,35.25058873,128.8741232,운영,https://blog.naver.com/mom4284/222158631929,2000-08-22,,,
경상남도,김해시,한샘어린이집,민간,정상,50928,경상남도 김해시 분성로454번길 19-11 ,055-336-7123,055-322-7116,5,161,0,15,39,32,35.23355465,128.8964972,운영,,2005-09-23,,,
경상남도,김해시,예지어린이집,가정,정상,50933,경상남도 김해시 인제로11번길 46 1층 (삼정동),055-324-9004,055-336-7125,5,144,0,6,20,18,35.22938743,128.9002744,운영,,2003-11-07,,,
경상남도,김해시,피노키오어린이집,민간,정상,50922,경상남도 김해시 호계로472번길 33 피노키오 어린이집 (부원동),055-332-1910,055-332-1910,7,331,1,7,75,32,35.23140311,128.8866972,운영,http://pnko.1141004.com,1992-04-08,,,
경상남도,김해시,수정어린이집,사회복지법인,정상,50972,경상남도 김해시 금관대로719번길 19-8 수정어린이집,055-314-8700,055-314-8707,6,144,0,13,49,35,35.20640637,128.8251331,운영,,2005-01-31,,,
경상남도,김해시,장유어린이집,국공립,정상,51001,경상남도 김해시 장유로334번길 66 ,055-314-2634,055-314-2639,6,375,1,14,88,85,35.19322154497012,128.81100652470687,운영,,1992-01-01,,,
경상남도,김해시,김해시청 직장보육시설 해동이어린이집,직장,정상,50924,경상남도 김해시 김해대로2371번길 24-19 ,055-322-0905,055-322-0935,7,426,3,16,99,54,35.229331,128.8867944,운영,http://haedonge.com/,1997-07-16,,,
경상남도,김해시,블루키즈어린이집,민간,정상,50960,경상남도 김해시 금관대로1134번길 31 (외동),055-902-7716,055-334-1888,5,163,0,13,49,43,35.23119178,128.8517303,운영,,2002-11-13,,,
경상남도,김해시,맘에든어린이집,민간,정상,50941,경상남도 김해시 전하로124번길 26-16 ,055-325-0063,055-325-7763,5,237,1,13,82,53,35.21856203,128.8614544,운영,,2006-03-10,,,
경상남도,김해시,즐거운영재어린이집,민간,정상,50890,경상남도 김해시 금관대로1341번길 6-20 ,055-325-9918,055-325-9914,9,780,2,20,179,101,35.24388211,128.8647503,운영,,2006-03-16,,,
경상남도,김해시,꽃뜰어린이집,가정,정상,50862,"경상남도 김해시 진영읍 장등로19번길 18 201동 105호(진영리, 중흥에스클래스진영2단지아파트)",055-343-3536,055-343-3538,3,104,0,6,20,13,35.30089757,128.7290397,운영,,2006-03-13,,,
경상남도,김해시,한신어린이집,민간,정상,50959,경상남도 김해시 분성로 14 일동한신아파트 883번지 관리동내 (외동),055-325-2355,055-327-2337,5,103,0,5,36,17,35.23160402,128.8480928,운영,cafe. naver.com/ hanshinkids,1996-07-12,,,
경상남도,김해시,작은별어린이집,민간,정상,50824,경상남도 김해시 삼안로112번길 16 (안동),055-332-2284,055-332-2294,6,141,0,11,39,28,35.23972068,128.9178347,운영,,2003-03-13,,,
경상남도,김해시,작은나무어린이집,사회복지법인,정상,50962,경상남도 김해시 분성로194번길 2-1 ,055-333-1826,055-333-1827,6,158,0,14,49,47,35.22967239,128.8679226,운영,,2005-01-31,,,
경상남도,김해시,금빛샘어린이집,민간,정상,50893,경상남도 김해시 평전로94번길 9-24 금빛샘어린이집 (내동),055-327-3663,055-324-1636,6,318,1,14,65,63,35.23895598,128.8584234,운영,,2005-05-17,,,
경상남도,김해시,김해어린이집,국공립,정상,50926,경상남도 김해시 가락로15번길 22 1층 (봉황동),055-333-2698,055-333-2697,5,351,2,14,86,73,35.22789205,128.88017,운영,http://gimhaechild.or.kr/,1992-01-10,,,
경상남도,김해시,장유다솜어린이집,사회복지법인,정상,51000,경상남도 김해시 장유면 삼문로59번길 72 ,055-312-0550,055-312-0553,7,212,1,8,58,27,35.19386042,128.8081934,운영,https://cafe.naver.com/jangyudasom,2005-01-26,,,
경상남도,김해시,가람어린이집,사회복지법인,정상,50866,경상남도 김해시 김해대로332번길 62 ,055-342-8060,055-342-8061,4,145,1,6,49,22,35.30482906,128.7221926,운영,,2006-08-31,,,
경상남도,김해시,하늘동화어린이집,민간,정상,50904,"경상남도 김해시 구산로5번길 55 112동 1층(구산동, 동원)",055-334-1030,055-334-0225,4,142,0,9,46,27,35.25388952,128.8696334,미운영,,2005-12-29,,,
경상남도,김해시,색동원어린이집,사회복지법인,정상,50840,경상남도 김해시 활천로154번길 16 (어방동),055-331-5026,055-331-5027,5,130,1,13,49,31,35.23817905,128.9002265,운영,torehddnjs@hanmail.net,2005-01-26,,,
경상남도,김해시,색동어린이집,민간,정상,50840,경상남도 김해시 활천로154번길 14 ,055-331-5021,055-331-5041,4,132,0,6,49,43,35.23822057,128.9000973,운영,jy5196@daum.net,2005-03-31,,,
경상남도,김해시,은성어린이집,민간,정상,50958,경상남도 김해시 함박로 122-1 ,055-325-0686,055-325-0674,6,283,1,15,97,79,35.23187567,128.8618291,운영,www.k-eunsung.co.kr,1997-02-24,,,
경상남도,김해시,어방어린이집,국공립,정상,50837,경상남도 김해시 활천로208번길 3 (어방동),055-322-3669,055-322-3130,5,250,1,11,89,57,35.24222757,128.9021127,운영,,1994-04-04,,,
경상남도,김해시,반야어린이집,사회복지법인,정상,50996,경상남도 김해시 덕정로77번길 9 반야어린이집,055-313-4756,055-313-4757,5,132,0,7,49,21,35.18039900613079,128.79431410121685,운영,,2005-01-31,,,
경상남도,김해시,진영꼬마대통령어린이집,민간,정상,50862,경상남도 김해시 진영읍 장등로 55 중흥S클래스 1단지 관리동 어린이집,055-345-9122,055-345-9122,4,172,0,8,39,25,35.31117,128.73512,운영,http://jhyesol.com,2006-08-16,,,
경상남도,김해시,구산어린이집,국공립,정상,50908,경상남도 김해시 가락로 222 김해시 구산동321번지,055-337-4548,055-337-0821,5,155,1,9,59,47,35.24714251,128.8760212,운영,,1993-12-06,,,
경상남도,김해시,현대아이어린이집,민간,정상,50897,경상남도 김해시 삼계로 232 현대아이아파트복리동,055-333-0801,051-980-7785,6,140,1,8,48,27,35.26674231,128.8686453,운영,,2004-03-19,,,
경상남도,김해시,동상어린이집,국공립,정상,50843,경상남도 김해시 가야로475번길 6-5 공립동상어린이집(동상동 1106-10),055-336-7817,055-336-7896,5,307,1,12,78,61,35.23942927794916,128.88756281885048,운영,http://cafe.daum.net/dongsangkids,1991-01-10,,,
경상남도,김해시,동아아이뜰어린이집,민간,정상,50952,경상남도 김해시 내외로 55 동아1차아파트 관리동 1층 (내동),055-324-4253,055-324-4253,3,114,0,7,32,24,35.23641994,128.8638042,운영,,2008-11-17,,,
경상남도,김해시,이솝어린이집,민간,정상,50823,경상남도 김해시 삼안로132번길 5-30 ,055-335-5535,055-327-0403,5,252,1,8,58,30,35.24194588,128.9150207,운영,,2005-12-22,,,
경상남도,김해시,뜨란채아이또래어린이집,민간,정상,50954,경상남도 김해시 우암로 36 뜨란채아파트 관리동내 보육시설 (외동),055-326-1983,055-326-1973,4,106,0,8,39,28,35.23303634,128.8606077,운영,,1997-01-30,,,
경상남도,김해시,아이랑어린이집,가정,정상,50959,"경상남도 김해시 분성로 14 125동 102호(외동, 일동한신)",055-903-3365,055-903-3365,4,84,0,4,19,18,35.23160402,128.8480928,운영,,2004-02-03,,,
경상남도,김해시,달리별리어린이집,가정,정상,50939,"경상남도 김해시 전하로208번길 40-12 106동 101호(전하동, 반도보라)",055-323-8236,055-323-8223,4,90,0,5,18,9,35.22355751969079,128.87318608788928,운영,,2006-04-01,,,
경상남도,김해시,도솔어린이집,민간,정상,50837,경상남도 김해시 활천로202번길 16 (어방동),055-326-3866,055-328-3866,7,264,1,13,99,80,35.24100388,128.9010905,운영,,1996-02-07,,,
경상남도,김해시,도담어린이집,민간,정상,50961,경상남도 김해시 분성로 106-19 ,055-325-2425,055-328-2425,9,308,1,18,103,85,35.23002071,128.8586423,운영,,2006-07-19,,,
경상남도,김해시,꿈지기어린이집,민간,정상,50897,경상남도 김해시 삼계로 218 한솔솔파크 관리동 (삼계동),055-902-9500,055-902-2211,4,80,0,10,30,30,35.26849468,128.8696389,운영,,2005-11-15,,,
경상남도,김해시,더키즈스쿨어린이집,민간,정상,50945,경상남도 김해시 내외중앙로 121 대우아파트 관리동,055-909-4545,055-909-4646,5,108,0,7,30,20,35.24097381,128.8680815,운영,,1997-08-21,,,
경상남도,김해시,유영어린이집,민간,정상,50955,경상남도 김해시 함박로45번길 17-19 ,055-325-1724,055-321-3681,6,228,1,9,86,25,35.23364562,128.8582037,미운영,www.youyoung.co.kr,1997-02-27,,,
경상남도,김해시,킨더그린어린이집,민간,정상,50833,경상남도 김해시 인제로 167-4 어방화인어린이집 (어방동),055-337-1717,055-337-1727,12,471,1,12,151,39,35.2461959,128.9020556,미운영,,1997-02-22,,,
경상남도,김해시,매화정원어린이집,민간,재개,50954,경상남도 김해시 함박로101번길 19-1 매화정원어린이집,055-331-1284,055-312-1284,5,254,1,13,74,74,35.233456,128.86319,운영,khe6262@hanmail.net,2009-01-08,,,
경상남도,김해시,장미어린이집,가정,정상,50897,"경상남도 김해시 삼계로 248 218동 101호(삼계동, 분성마을부영7차아파트)",055-322-3866,--,4,95,0,7,19,18,35.26789,128.86636,운영,,2002-11-18,,,
경상남도,김해시,동부꽃동산어린이집,가정,정상,50824,경상남도 김해시 삼안로112번길 15-19 ,055-321-4847,055-321-4849,4,118,0,6,20,10,35.24043406,128.9170715,운영,,2001-01-30,,,
경상남도,김해시,꼬꼬마어린이집,민간,정상,50825,경상남도 김해시 삼안로131번길 13 한일 관리동1층,055-327-8234,055-326-8234,4,82,0,5,31,15,35.2440323,128.9224223,운영,,1999-04-16,,,
경상남도,김해시,나흔어린이집,가정,정상,50954,"경상남도 김해시 함박로 101 303동 103호(외동, 내외대동한마음타운)",055-327-4393,055-338-4393,3,66,0,6,16,14,35.23255,128.865,운영,,2004-02-09,,,
경상남도,김해시,작은왕국어린이집,가정,정상,50890,경상남도 김해시 금관대로1365번길 14-15 ,055-322-3212,055-335-3212,4,100,1,5,15,13,35.24577097,128.8653197,운영,공공형작은왕국어린이집밴드,2004-04-05,,,
경상남도,김해시,키즈랜드어린이집,가정,정상,50957,"경상남도 김해시 함박로 92 304동 105호(외동, 한국2차아파트)",055-326-7090,055-326-7093,4,47,0,4,13,9,35.23214,128.864,운영,,2005-10-16,,,
경상남도,김해시,부경몬테소리어린이집,가정,정상,50957,"경상남도 김해시 함박로 92 313동 101호(외동, 한국2차아파트)",055-313-3459,055-313-3459,4,48,0,6,16,14,35.23214,128.864,운영,,2008-12-03,,,
경상남도,김해시,협성참사랑어린이집,가정,정상,50866,경상남도 김해시 진영읍 김해대로244번길 10 협성팔레스아파트 101동 101호,055-342-3323,055-345-3324,4,85,0,5,20,16,35.30636223,128.7169072,운영,,2002-01-02,,,
경상남도,김해시,참좋은이화예능어린이집,민간,정상,50893,경상남도 김해시 금관대로1265번길 10 ,055-311-1070,055-312-1060,5,203,0,8,49,38,35.23861049,128.8583318,운영,다음카페,2008-06-02,,,
경상남도,김해시,인당어린이집,국공립,정상,50958,경상남도 김해시 분성로 227 보건복지센터 내 (외동),055-329-6633,055-329-6634,5,210,1,15,50,26,35.2324635,128.8706286,운영,indang.kidsnote.ac,1999-06-14,,,
경상남도,김해시,꿈꾸는어린이집,가정,정상,50828,"경상남도 김해시 분성로727번길 16 101동 106호(지내동, 양지마을동원1차아파트)",055-332-2794,055-332-2736,4,63,0,6,20,17,35.22904877,128.9243992,운영,,2000-06-14,,,
경상남도,김해시,튼튼키즈어린이집,가정,정상,50956,경상남도 김해시 금관대로1190번길 22 (외동),055-334-4963,050-4443-4541,4,73,0,2,20,7,35.2323383612,128.8551905142,운영,,2002-07-10,,,
경상남도,김해시,가야아이어린이집,가정,정상,50898,"경상남도 김해시 해반천로168번길 19 403동 103호(삼계동, 화정마을아이파크가야아파트)",055-332-7252,055-903-7252,4,61,0,6,20,13,35.26340525,128.8694142,운영,,1997-07-29,,,
경상남도,김해시,초록별어린이집,가정,정상,50956,경상남도 김해시 금관대로1180번길 37-4 ,055-325-6855,055-325-6855,4,100,0,5,20,9,35.23170815,128.8562201,운영,,1999-03-15,,,
경상남도,김해시,요정나라어린이집,가정,정상,50959,"경상남도 김해시 분성로 14 120동 101호(외동, 일동한신)",055-332-3009,--,4,85,0,7,20,19,35.23160402,128.8480928,운영,,2003-03-03,,,
경상남도,김해시,통키어린이집,가정,정상,50954,"경상남도 김해시 우암로 36 318동 102호(외동, 신주공아파트)",055-337-6146,--,4,80,0,6,16,14,35.23303634,128.8606077,운영,,1997-01-30,,,
경상남도,김해시,삼계꼬마숲어린이집,가정,정상,50897,"경상남도 김해시 삼계로 248 220동 101호(삼계동, 분성마을부영7차아파트)",055-331-1721,055-331-1721,4,66,0,7,20,18,35.26789,128.86636,운영,삼계꼬마숲어린이집,2005-09-12,,,
경상남도,김해시,청아어린이집,가정,정상,50862,"경상남도 김해시 진영읍 장등로 53 102동 106호(진영리, 중흥에스클래스진영1단지아파트)",055-346-5800,055-346-5801,4,75,0,6,18,12,35.30182849,128.7320597,운영,ben0621@naver.com,2006-04-01,,,
경상남도,김해시,아트리아어린이집,가정,정상,50815,"경상남도 김해시 삼안로 244 2동 101호(삼방동, 한일)",055-325-0128,055-325-0128,4,90,0,6,19,17,35.25008025,128.9120024,운영,,2008-08-25,,,
경상남도,김해시,활천어린이집,법인·단체등,정상,50929,경상남도 김해시 인제로51번길 59 (삼정동),055-336-0262,055-336-0262,4,138,1,7,49,19,35.23260503,128.8985038,운영,,1996-02-01,,,
경상남도,김해시,중앙어린이집,민간,정상,50963,경상남도 김해시 흥동로 7 (풍유동),055-324-2779,055-324-3331,7,329,1,17,69,59,35.223347393659225,128.84981971816543,운영,,2003-12-23,,,
경상남도,김해시,다솜어린이집,가정,정상,50881,"경상남도 김해시 김해대로 1784-15 105동 106호(삼계동, 김해북부두산위브)",055-339-5017,--,4,90,1,4,19,11,35.26631226,128.8605835,미운영,,2006-04-03,,,
경상남도,김해시,에덴어린이집,사회복지법인,정상,50867,경상남도 김해시 진영읍 진영로26번길 45 ,055-342-6430,055-343-6430,6,236,0,7,49,27,35.30140635,128.7184292,운영,,2005-04-25,,,
경상남도,김해시,동원프뢰벨어린이집,민간,정상,50828,"경상남도 김해시 분성로707번길 10 208동 1층(지내동, 양지마을동원2차아파트)",055-325-6046,055-325-7020,3,124,0,3,29,6,35.23192113,128.9237386,운영,,2002-05-24,,,
경상남도,김해시,이화은물어린이집,가정,정상,50862,"경상남도 김해시 진영읍 장등로 53 103동 101호(, 중흥에스클래스진영1단지아파트)",055-346-2150,055-346-2156,4,60,0,6,19,18,35.31117,128.73512,운영,,2006-09-04,,,
경상남도,김해시,김해삼성어린이집,민간,정상,50933,경상남도 김해시 인제로11번길 4 (어방동),055-323-1840,055-323-1842,6,449,3,22,151,99,35.22980809,128.9049073,미운영,,2006-10-23,,,
경상남도,김해시,진영해바라기어린이집,민간,정상,50862,경상남도 김해시 진영읍 장등로19번길 18-1 중흥S클래스2단지 관리동 진영해바라기 어린이집,055-342-9932,055-342-9931,4,150,0,8,34,28,35.30449023,128.7244382,운영,https://blog.naver.com/sing0309-,2006-08-31,,,
경상남도,김해시,바른어린이집,민간,정상,50868,경상남도 김해시 진영읍 진영로234번길 2 ,055-342-2013,055-342-2013,4,104,0,6,33,25,35.30223723,128.7383693,운영,,2006-10-16,,,
경상남도,김해시,꽃동산어린이집,민간,정상,50885,경상남도 김해시 평전로201번길 10-12 247-35,055-322-5555,055-312-1111,3,101,0,5,38,19,35.24617255,128.8639934,운영,,2007-03-02,,,
경상남도,김해시,푸르지오 아름어린이집,민간,정상,50831,경상남도 김해시 가야로 19-1 분성마을 푸르지오아파트 복리동,055-904-2406,--,4,108,0,10,31,29,35.27151,128.86136,미운영,,2007-02-05,,,
경상남도,김해시,사과나무어린이집,사회복지법인,정상,50996,경상남도 김해시 장유면 덕정로77번길 17-17 ,055-311-2121,055-311-2165,5,279,1,22,47,37,35.18104888,128.7952374,운영,,2007-03-27,,,
경상남도,김해시,푸르지오꿈모아어린이집,가정,정상,50902,"경상남도 김해시 삼계로 33 301동 101호(삼계동, 구지마을3단지푸르지오)",055-328-0620,055-328-0620,4,90,0,8,20,19,35.25764651,128.8697582,운영,,2007-07-09,,,
경상남도,김해시,대동어린이집,국공립,정상,50808,경상남도 김해시 대동면 동남로41번길 13-11 ,055-335-0127,055-335-0126,5,228,1,9,86,48,35.23591657,128.9938847,운영,,2007-09-21,,,
경상남도,김해시,블루베베어린이집,가정,정상,50959,"경상남도 김해시 분성로 14 122동 102호(외동, 일동한신)",055-326-7716,055-326-7716,5,60,0,7,20,20,35.23160402,128.8480928,운영,,2007-10-05,,,
경상남도,김해시,대청어린이집,국공립,정상,51004,경상남도 김해시 대청로176번길 15 대청어린이집,055-333-3663,055-333-3763,6,552,1,11,76,67,35.19161591,128.7978648,운영,,2007-09-27,,,
경상남도,김해시,진영한별어린이집,가정,정상,50862,"경상남도 김해시 진영읍 김해대로361번길 34 404동 104호(, 김해진영코아루)",055-343-5340,055-343-5340,4,85,0,6,20,15,35.311363,128.7319,운영,,2010-06-30,,,
경상남도,김해시,중흥금빛어린이집,가정,정상,50862,"경상남도 김해시 진영읍 장등로 53 105동 102호(, 중흥에스클래스진영1단지아파트)",055-343-5343,055-343-5346,4,80,0,11,19,16,35.31117,128.73512,운영,,2007-11-14,,,
경상남도,김해시,세별어린이집,가정,정상,50862,"경상남도 김해시 진영읍 장등로 55 102동 102호(진영리, 중흥에스클래스진영1단지아파트)",055-342-1320,055-342-1320,4,83,0,8,19,16,35.31117,128.73512,운영,,2007-11-16,,,
경상남도,김해시,진영예꼬아이어린이집,가정,정상,50862,"경상남도 김해시 진영읍 김해대로361번길 34 402동 103호(진영리, 김해진영코아루)",055-345-0157,055-345-0157,4,85,0,6,19,16,35.311363,128.7319,운영,,2007-11-23,,,
경상남도,김해시,아름드리어린이집,가정,재개,50904,"경상남도 김해시 구산로5번길 89 209동 102호(구산동, 한일유앤아이)",055-332-9284,--,3,53,0,2,17,1,35.25666804,128.8680653,미운영,,2008-01-16,,,
경상남도,김해시,꿈나무어린이집,가정,정상,50831,"경상남도 김해시 가야로 17 504동 104호(삼계동, 분성마을푸르지오5단지아파트)",055-332-3743,--,4,59,0,6,16,14,35.27238738,128.8623899,운영,,2008-02-26,,,
경상남도,김해시,코아루아이린어린이집,가정,정상,50862,경상남도 김해시 진영읍 김해대로361번길 34 코아루 아파트 409동 101호,055-345-0199,--,4,84,0,6,19,19,35.30998818861807,128.73189922266934,운영,,2008-02-20,,,
경상남도,김해시,아기별꽃어린이집,가정,재개,50904,"경상남도 김해시 구산로5번길 89 211동 102호(구산동, 한일유앤아이)",055-331-2945,055-334-2945,3,56,0,7,17,16,35.2553788967834,128.86744046080702,미운영,,2008-02-22,,,
경상남도,김해시,코아루어린이집,민간,정상,50862,경상남도 김해시 진영읍 김해대로361번길 36 코아루아파트 관리동,055-345-2326,055-345-2326,5,104,0,7,35,22,35.309906,128.73026,운영,,2008-02-15,,,
경상남도,김해시,해담어린이집,가정,정상,50862,"경상남도 김해시 진영읍 김해대로361번길 31 308동 102호(진영리, 진영자이)",055-342-4127,055-342-4127,4,85,1,6,20,18,35.309063,128.72845,운영,,2008-02-15,,,
경상남도,김해시,김해유체어린이집,민간,정상,50962,경상남도 김해시 분성로194번길 25 김해유체어린이집,055-332-6042,--,8,261,2,7,86,28,35.22834284,128.8689279,운영,,2008-03-07,,,
경상남도,김해시,즐거운어린이집,가정,정상,50862,경상남도 김해시 진영읍 김해대로361번길 31 310동 104호(진영자이아파트),055-346-5393,055-346-5394,4,91,0,7,20,17,35.309063,128.72845,운영,,2008-04-10,,,
경상남도,김해시,노루와사슴어린이집,가정,정상,50954,"경상남도 김해시 함박로 101 306동 103호(외동, 내외대동한마음타운)",055-904-7893,055-904-7893,2,44,0,8,15,15,35.23255,128.865,운영,,2008-04-24,,,
경상남도,김해시,예쁜은아어린이집,가정,정상,50959,"경상남도 김해시 분성로 14 121동 102호(외동, 일동한신)",055-903-4200,055-903-4210,3,85,0,6,19,8,35.23160402,128.8480928,미운영,http://cafe.daum.net/euna-102,2008-04-21,,,
경상남도,김해시,행복한어린이집,민간,정상,50862,경상남도 김해시 진영읍 김해대로361번길 31 자이아파트  복리동 1층,055-724-2546,055-724-2541,3,86,0,6,28,18,35.309063,128.72845,운영,,2008-05-02,,,
경상남도,김해시,아이맘어린이집,가정,정상,50957,"경상남도 김해시 함박로 92 312동 105호(외동, 한국2차아파트)",055-908-4868,055-908-4888,4,69,0,7,16,16,35.23214,128.864,운영,,2008-06-11,,,
경상남도,김해시,북부어린이집,국공립,정상,50830,경상남도 김해시 두곡로 18-16 (삼계동),055-329-7700,055-329-7701,5,328,1,11,79,79,35.27240675,128.8663657,운영,,2008-06-30,,,
경상남도,김해시,중흥꼬꼬마어린이집,가정,정상,50862,"경상남도 김해시 진영읍 장등로 55 103동 103호(진영리, 중흥에스클래스진영1단지아파트)",055-346-7287,055-346-6222,3,62,0,6,19,17,35.3105057174,128.7348680088,운영,jjuccume@naver.com,2008-09-03,,,
경상남도,김해시,중흥까꿍어린이집,가정,정상,50862,경상남도 김해시 진영읍 장등로19번길 18 205동 105호,070-8937-1285,--,4,85,0,6,20,12,35.3085834,128.7329738,운영,,2008-10-21,,,
경상남도,김해시,대명어린이집,가정,정상,50897,"경상남도 김해시 삼계로 232 104동 101호 (삼계동, 현대분성마을아이파크1차아파트)",055-322-0080,055-724-1827,4,65,0,7,19,19,35.26674231,128.8686453,운영,,2008-10-21,,,
경상남도,김해시,다전어린이집,국공립,정상,50922,경상남도 김해시 분성로390번길 1 (동상동),055-333-8400,055-333-8415,4,130,1,10,49,48,35.23429011,128.8888073,운영,,2008-11-10,,,
경상남도,김해시,작은아이어린이집,가정,정상,50830,"경상남도 김해시 해반천로278번길 12-27 107동 103호(삼계동, 삼계이안아파트)",055-311-3394,055-311-3394,4,84,0,7,19,17,35.27480537,128.8682466,운영,,2008-11-14,,,
경상남도,김해시,진영금빛어린이집,가정,재개,50862,"경상남도 김해시 진영읍 장등로 53 105동 101호(진영리, 중흥에스클래스진영1단지아파트)",055-343-0770,--,4,60,0,6,19,18,35.31117,128.73512,미운영,,2008-11-14,,,
경상남도,김해시,느티나무어린이집,가정,정상,50954,"경상남도 김해시 함박로 101 307동 107호(외동, 내외대동한마음타운)",055-904-5399,055-904-5399,3,70,0,8,16,16,35.23255,128.865,미운영,,2008-11-24,,,
경상남도,김해시,진례어린이집,국공립,정상,50873,경상남도 김해시 진례면 송현로 77-20 ,055-342-0207,055-342-0260,5,233,1,10,88,52,35.24904368,128.757101,운영,해당없음,2008-12-03,,,
경상남도,김해시,금관어린이집,국공립,정상,50832,경상남도 김해시 삼계로 138 (삼계동),055-313-0700,055-313-0733,7,526,1,24,52,44,35.26292675,128.8783814,운영,,2008-12-05,,,
경상남도,김해시,고운아이어린이집,가정,재개,50898,"경상남도 김해시 삼계로 239 206동 104호(삼계동, 화정마을부영2차아파트)",010-3904-8544,055-338-8544,4,60,0,9,19,18,35.26509,128.8685,운영,khjin8544@naver.com,2008-12-30,,,
경상남도,김해시,정다운어린이집,가정,정상,50958,"경상남도 김해시 함박로 120 211동 101호(외동, 한국1차아파트)",055-903-9312,055-903-9312,3,82,0,6,15,11,35.23458681,128.8719334,운영,,2008-12-30,,,
경상남도,김해시,비발디동화속어린이집,민간,정상,50906,경상남도 김해시 가락로332번길 13 ,055-336-3112,055-336-3112,3,120,0,9,35,33,35.254845474899376,128.87209969516104,운영,,2008-12-29,,,
경상남도,김해시,율곡어린이집,국공립,정상,51013,경상남도 김해시 율하1로 7 율곡 2단지 관리동,055-328-5500,055-328-5363,3,96,1,8,35,27,35.17389375,128.806248,미운영,,2009-02-24,,,
경상남도,김해시,도담도담어린이집,가정,정상,50882,"경상남도 김해시 김해대로 1832 105동 104호(삼계동, 명지세인트빌아파트)",055-336-3600,055-336-3600,3,54,0,8,20,19,35.26357346,128.8630427,운영,,2009-02-25,,,
경상남도,김해시,명지세인트빌어린이집,가정,정상,50882,"경상남도 김해시 김해대로 1832 107동 103호(삼계동, 명지세인트빌아파트)",055-335-3144,055-335-3144,4,72,1,9,19,13,35.26357346,128.8630427,운영,cafe.daum.net/3353144,2009-02-25,,,
경상남도,김해시,황금나무어린이집,가정,정상,50842,경상남도 김해시 가야로463번길 14 203-105,010-6508-1352,055-313-1352,3,67,1,8,20,16,35.24050695,128.8878313,운영,,2009-02-23,,,
경상남도,김해시,동원예쁜꼬마어린이집,가정,정상,50838,"경상남도 김해시 활천로 181 503동 109호(어방동, 어방동원아파트)",055-336-2228,055-336-2228,4,55,0,4,19,7,35.24150342,128.9002204,운영,tnrgid617@hanmail.net,2009-03-06,,,
경상남도,김해시,예쁜어린이집,가정,정상,50955,경상남도 김해시 우암로43번길 4-2 ,055-332-5407,--,4,74,0,5,19,18,35.23471159,128.8604166,운영,,2009-03-11,,,
경상남도,김해시,연세어린이집,가정,정상,50945,"경상남도 김해시 내외중앙로 121 106동 104호(내동, 내외대우)",055-324-6731,0504-396-6731,4,85,0,5,19,1,35.24097381,128.8680815,운영,,2009-03-12,,,
경상남도,김해시,행복나눔어린이집,가정,정상,50908,"경상남도 김해시 가락로 242-15 2동 102호(구산동, 대동삼업)",055-312-3820,055-312-3820,4,90,0,8,20,20,35.2472494,128.8744533,운영,,2009-04-23,,,
경상남도,김해시,부영또래어린이집,민간,정상,50882,"경상남도 김해시 김해대로 1866 삼계동, 화정마을부영6차",070-7670-4154,055-904-4154,3,116,0,6,27,12,35.25999,128.86462,운영,,2009-05-19,,,
경상남도,김해시,이안딸기어린이집,가정,정상,50830,"경상남도 김해시 해반천로278번길 12-27 106동 101호(삼계동, 삼계이안아파트)",055-339-1666,--,4,85,0,3,19,11,35.27480537,128.8682466,운영,,2009-05-28,,,
경상남도,김해시,아이윌어린이집,민간,정상,50840,경상남도 김해시 활천로208번길 54 (어방동),055-335-4112,055-335-4113,7,405,2,9,129,41,35.23817007,128.8994947,운영,,2009-05-14,,,
경상남도,김해시,천사들세상어린이집,민간,정상,50898,"경상남도 김해시 삼계로 239 1439동 1층 2호(삼계동, 화정마을부영2차아파트)",055-333-7414,--,3,75,0,7,27,27,35.26509,128.8685,운영,http://m.cafe.naver.com/0102383/3945,2009-06-10,,,
경상남도,김해시,관동어린이집,국공립,정상,51005,경상남도 김해시 장유면 관동로27번길 111 ,055-333-3728,055-333-3729,6,500,1,12,84,69,35.17866474,128.8164978,운영,,2009-08-20,,,
경상남도,김해시,주촌어린이집,국공립,정상,50877,경상남도 김해시 주촌면 서부로1541번길 11 ,055-326-5700,055-326-5702,5,246,2,16,93,80,35.23549344,128.8206451,운영,,2009-09-01,,,
경상남도,김해시,토리자연어린이집,민간,정상,50897,경상남도 김해시 삼계로 248 부영7차 아파트 관리동 1층,055-339-7379,055-902-1878,5,100,0,8,29,29,35.25055728,128.8816895,운영,다음/카페/토리자연어린이집,2009-09-10,,,
경상남도,김해시,율하어린이집,국공립,정상,51017,경상남도 김해시 율하2로 178 주공12단지 관리동내,055-321-1631,055-321-1632,2,69,0,5,26,8,35.16955332,128.8211677,미운영,,2009-10-09,,,
경상남도,김해시,율현어린이집,국공립,정상,51017,경상남도 김해시 율하2로 164 주공13단지 관리동내 공립 율현어린이집,055-321-2515,055-321-2516,2,73,1,9,27,26,35.16813537,128.8175748,미운영,https://cafe.naver.com/dbfgus09,2009-10-09,,,
경상남도,김해시,유림어린이집,가정,정상,50954,"경상남도 김해시 함박로101번길 19 310동 101호(외동, 내외대동한마음타운)",055-325-0405,055-325-0405,4,80,0,6,16,16,35.23347777083021,128.86478543373857,운영,,2009-10-16,,,
경상남도,김해시,애플베베어린이집,가정,정상,50957,"경상남도 김해시 분성로 155 314동 104호(외동, 한국2차아파트)",055-903-2555,055-328-2533,3,69,0,7,16,16,35.23214,128.864,운영,cafe.daum.net/,2009-11-05,,,
경상남도,김해시,베베어린이집,가정,정상,50862,"경상남도 김해시 진영읍 김해대로361번길 31 309동 102호(진영리, 진영자이)",070-8717-4729,--,4,91,0,6,20,18,35.309063,128.72845,운영,,2009-11-19,,,
경상남도,김해시,동원키즈어린이집,가정,정상,50897,"경상남도 김해시 가야로 60 303동 101호(삼계동, 분성마을동원로얄듀크3단지아파트)",055-339-7977,055-339-7977,3,90,0,4,19,12,35.2695198495,128.8653651333,운영,,2009-12-01,,,
경상남도,김해시,대아어린이집,가정,정상,50825,"경상남도 김해시 분성로627번길 16-3 101동 101호(안동, 대아)",055-335-3252,051-980-5530,3,84,0,6,19,6,35.23748831,128.9158825,운영,,2009-12-01,,,
경상남도,김해시,내사랑어린이집,가정,정상,50836,"경상남도 김해시 인제로 167 102동 106호(어방동, 대우유토피아)",055-332-5848,055-332-5847,4,79,0,6,20,14,35.24255769077762,128.90117741930547,운영,,2009-12-10,,,
경상남도,김해시,가람휘어린이집,가정,정상,50897,"경상남도 김해시 가야로 58 311동 102호(삼계동, 분성마을동원로얄듀크3단지아파트)",055-902-8860,--,4,85,0,6,19,19,35.26953935,128.8653691,운영,,2009-12-16,,,
경상남도,김해시,나라찬어린이집,가정,정상,50898,"경상남도 김해시 삼계로 253 101동 103호(삼계동, 화정마을부영1차아파트)",055-328-2618,055-328-2618,3,52,0,9,19,19,35.266167,128.86559,운영,http://blog.naver.com/vs660620,2009-12-18,,,
경상남도,김해시,뿌리와새싹어린이집,가정,정상,50904,"경상남도 김해시 구산로5번길 71 206동 101호(구산동, 한일유앤아이)",055-334-3665,055-334-3665,4,55,0,6,17,17,35.25491797229831,128.8688097953998,운영,,2010-02-26,,,
경상남도,김해시,미소지움예꿈어린이집,가정,정상,50841,"경상남도 김해시 분성로499번길 9 107동 102호(어방동, 신성김해미소지움아파트)",055-328-1116,--,3,62,0,6,20,15,35.23478035,128.8987113,운영,,2010-03-11,,,
경상남도,김해시,행복한아이들어린이집,가정,정상,50897,"경상남도 김해시 삼계로 218 407동 101호(삼계동, 분성마을한솔솔파크4단지아파트)",055-331-3788,055-331-3788,4,73,0,7,20,20,35.26811,128.86984,운영,,2010-04-09,,,
경상남도,김해시,자담어린이집,가정,정상,50952,"경상남도 김해시 내외로 55 302동 104호(내동, 동아아파트)",055-326-2104,055-326-2104,5,100,0,6,20,13,35.23641994,128.8638042,운영,,2010-04-14,,,
경상남도,김해시,하버드어린이집,가정,정상,50862,"경상남도 김해시 진영읍 김해대로361번길 31 309동 103호(진영리 1610, 자이)",055-343-2279,055-343-2279,4,108,1,9,20,20,35.3085834,128.7329738,운영,,2010-04-20,,,
경상남도,김해시,아이꽃어린이집,가정,정상,50862,"경상남도 김해시 진영읍 장등로19번길 18 205동 101호(진영리, 중흥S클래스아파트)",055-342-1696,055-342-1696,4,59,0,6,20,18,35.308556028534596,128.73257038563977,운영,,2010-04-21,,,
경상남도,김해시,코아루큰나무어린이집,가정,정상,50862,"경상남도 김해시 진영읍 김해대로361번길 34 410동 106호(진영리, 김해진영코아루)",055-346-0199,055-346-0199,4,85,0,8,19,17,35.311363,128.7319,운영,,2010-04-21,,,
경상남도,김해시,한일어린이집,가정,정상,50825,"경상남도 김해시 삼안로111번길 10 107동 106호(안동, 한일아파트)",055-312-0767,055-312-0767,4,58,0,6,20,15,35.23856153,128.9154496,운영,,2010-05-19,,,
경상남도,김해시,애플몬테소리어린이집,가정,정상,50862,"경상남도 김해시 진영읍 장등로 53 105동 107호(진영리, 중흥에스클래스진영1단지아파트)",055-346-6111,055-346-6111,3,54,0,6,18,15,35.31117,128.73512,운영,,2010-05-20,,,
경상남도,김해시,진영별하어린이집,가정,정상,50868,경상남도 김해시 진영읍 진영로 262-15 102동 104호 (장복아파트),055-343-7236,055-343-7236,4,90,0,5,20,9,35.30168354,128.7416486,운영,,2010-06-01,,,
경상남도,김해시,은가비어린이집,가정,정상,50866,경상남도 김해시 진영읍 김해대로332번길 37-9 101호,070-4086-6222,070-4086-6222,4,84,0,5,17,11,35.30584109,128.7241918,운영,,2010-07-09,,,
경상남도,김해시,숲속둥지어린이집,민간,정상,50872,경상남도 김해시 진례면 진례로 301 ,055-346-1223,055-345-5740,3,112,0,4,39,24,35.25435824,128.7469613,운영,,2010-07-13,,,
경상남도,김해시,리틀이솝어린이집,가정,정상,50862,"경상남도 김해시 진영읍 김해대로361번길 34 408동 104호(진영리, 김해진영코아루)",070-8740-3343,070-8740-0770,4,102,0,8,20,19,35.311363,128.7319,운영,,2010-07-27,,,
경상남도,김해시,아띠어린이집,가정,재개,50954,경상남도 김해시 우암로 36 외동 뜨란채 아파트 320동101호,055-333-5993,0504-189-2976,3,40,0,4,12,9,35.23364135862455,128.86119888776722,미운영,parksh2976,2010-08-19,,,
경상남도,김해시,진영휴먼시아어린이집,국공립,정상,50864,경상남도 김해시 진영읍 김해대로 462 진영휴먼시아 103동 1층 보육시설,055-342-2990,055-346-2990,4,155,3,11,49,43,35.3049437,128.7391746,운영,http://cafe.daum.net/humansia2990,2010-09-13,,,
경상남도,김해시,아리솔어린이집,가정,정상,50828,"경상남도 김해시 분성로727번길 16 101동 102호(지내동, 양지마을동원1차아파트)",055-902-5040,055-902-5040,3,84,0,5,19,7,35.23192113,128.9237386,미운영,,2010-11-11,,,
경상남도,김해시,크니크니어린이집,가정,정상,50953,"경상남도 김해시 함박로 121 202동 110호(외동, 덕산베스트타운)",055-326-7338,055-326-7338,4,50,0,7,15,15,35.23227414,128.8674999,미운영,,2011-01-07,,,
경상남도,김해시,진주빛어린이집,가정,정상,50891,경상남도 김해시 평전로 150 1층 (내동),055-325-7440,055-325-7440,6,121,0,11,20,19,35.24237885,128.8605405,운영,,2011-03-18,,,
경상남도,김해시,글로벌키즈하우스어린이집,민간,정상,50914,경상남도 김해시 구지로 206 글로벌키즈하우스 어린이집,055-331-0737,055-331-5074,7,224,1,19,84,70,35.2381604,128.8860182,운영,,2011-05-17,,,
경상남도,김해시,파란새싹어린이집,가정,정상,50836,"경상남도 김해시 인제로 167 101동 106호(어방동, 대우유토피아)",055-905-7624,055-905-7624,4,60,0,4,19,11,35.242958,128.89946,운영,,2011-06-02,,,
경상남도,김해시,크레용어린이집,가정,정상,50835,"경상남도 김해시 인제로 167-1 204동 101호(어방동, 화인아파트)",070-8841-0824,055-326-0827,4,69,0,7,16,16,35.24504074779672,128.90130130773767,운영,,2011-06-23,,,
경상남도,김해시,참사랑어린이집,가정,정상,50825,경상남도 김해시 삼안로111번길 12 103동 101호(안동 한일아파트),055-327-1085,--,3,53,0,5,19,11,35.23899554864281,128.91476423098604,운영,,2011-12-15,,,
경상남도,김해시,숲속해나어린이집,민간,정상,50867,경상남도 김해시 진영읍 진영로26번길 36 ,055-313-8747,055-343-8747,6,233,1,6,68,13,35.3021808273088,128.71821146604822,운영,,2012-02-02,,,
경상남도,김해시,우신찬솔나라어린이집,가정,정상,50835,경상남도 김해시 인제로169번길 27 우신그린피아아파트 301동 103호,055-322-3082,055-324-3082,4,100,1,7,20,20,35.2456624134308,128.903488891602,운영,,2012-03-20,,,
경상남도,김해시,맘스맘어린이집,가정,정상,50949,경상남도 김해시 경원로 19 현대아파트 303동 104호,055-334-6323,055-334-6323,5,99,0,7,20,20,35.2384136231973,128.862673560757,운영,,2012-03-30,,,
경상남도,김해시,푸르니어린이집,가정,정상,50898,경상남도 김해시 삼계로 251 부영5차아파트 101동 104호,055-312-5855,051-980-5604,4,92,0,8,20,14,35.2662202906668,128.866662970281,운영,,2012-04-03,,,
경상남도,김해시,동원사랑어린이집,가정,정상,50828,경상남도 김해시 분성로727번길 16 동원아파트 101동 103호,055-335-9877,055-335-9877,3,97,0,3,20,6,35.2311937102843,128.922393578611,운영,,2012-05-18,,,
경상남도,김해시,키즈스쿨어린이집,가정,정상,50953,경상남도 김해시 함박로119번길 6 덕산베스트타운 201동 107호,055-903-6633,055-903-6644,4,53,0,8,17,13,35.232168538867796,128.86795714584346,운영,,2012-05-31,,,
경상남도,김해시,웃음가득한햇볕어린이집,가정,정상,50841,경상남도 김해시 분성로499번길 9 101동 102호,055-908-6601,055-908-6601,4,59,0,5,20,11,35.23606094276637,128.8997234601943,운영,my681217@hanmail.net,2012-06-01,,,
경상남도,김해시,구산다솜어린이집,가정,정상,50904,경상남도 김해시 구산로5번길 57 105동 107호,055-331-5542,055-331-5542,4,64,0,7,15,13,35.253871514547484,128.8696363222993,운영,,2012-05-31,,,
경상남도,김해시,나영어린이집,가정,정상,50954,경상남도 김해시 함박로101번길 19 대동한마음아파트 303동 104호,055-339-4393,055-338-4393,3,66,0,4,17,13,35.233788275690024,128.86574873880284,운영,,2012-06-14,,,
경상남도,김해시,애기똥풀어린이집,가정,정상,50907,경상남도 김해시 가락로294번길 7 구산5주공아파트 501동 101호,055-312-6562,055-312-6562,4,45,0,0,15,0,35.25148264580079,128.87329916806314,운영,,2012-07-02,,,
경상남도,김해시,채린어린이집,가정,정상,50890,경상남도 김해시 금관대로1365번길 14-12 14-12,055-333-3232,055-333-3230,4,99,0,4,18,18,35.24541808813083,128.86545252680222,운영,,2012-07-16,,,
경상남도,김해시,언더우드어린이집,민간,정상,50858,경상남도 김해시 진영읍 본산로125번길 10 ..,055-346-2221,055-346-2251,9,369,2,17,139,136,35.31572774621743,128.74069528531154,운영,,2012-09-07,,,
경상남도,김해시,꼬마한결어린이집,가정,정상,50835,"경상남도 김해시 인제로 167-1 203동 108호(어방동, 화인아파트)",055-902-7578,055-902-7578,3,73,0,7,17,13,35.245907737347714,128.90146985466282,운영,,2012-09-18,,,
경상남도,김해시,꿈꾸는별어린이집,가정,정상,50907,"경상남도 김해시 가락로294번길 18 308동 101호(구산동, 구산3주공)",055-312-8002,055-312-8002,3,63,1,5,20,12,35.25030394044137,128.87406526735091,운영,,2012-09-17,,,
경상남도,김해시,한스어린이집,가정,정상,50862,경상남도 김해시 장등로 53 112동 105호,055-342-1661,055-342-1661,4,83,0,6,19,9,35.31116778665429,128.7351216308867,운영,,2012-10-19,,,
경상남도,김해시,아이생각어린이집,가정,정상,50831,경상남도 김해시 가야로 19 513동 103호,055-332-8807,055-332-8807,4,94,0,7,20,17,35.27029084939581,128.86239602877907,운영,,2012-11-09,,,
경상남도,김해시,햇살마루어린이집,가정,정상,50959,경상남도 김해시 분성로 14 일동한신아파트 116동 104호,055-908-0406,055-908-0406,4,64,0,6,20,20,35.22916544404642,128.8489267789625,운영,,2013-01-29,,,
경상남도,김해시,흰여울어린이집,가정,정상,50815,"경상남도 김해시 삼안로 264 102동 102호(삼방동, 화인아파트)",055-321-6629,055-337-6629,4,84,0,6,19,15,35.25130566896779,128.90954873454862,운영,,2013-02-21,,,
경상남도,김해시,서광아이어린이집,가정,정상,50953,경상남도 김해시 함박로 149 서광아파트 202동 105호,055-312-3408,--,4,45,0,5,13,8,35.23222168182041,128.8696273800499,미운영,,2013-03-22,,,
경상남도,김해시,책나무어린이집,가정,정상,50897,경상남도 김해시 가야로 58 304동 103호(동원로얄듀크),055-902-1117,--,4,94,0,6,20,20,35.270220864548,128.86693929760668,운영,,2013-05-03,,,
경상남도,김해시,명문버클리어린이집,민간,정상,50825,경상남도 김해시 삼안로77번길 14-3 (안동),055-331-3111,055-331-3166,9,446,2,16,99,82,35.23704303209282,128.9158664506137,운영,,2013-05-09,,,
경상남도,김해시,버클리어린이집,가정,정상,50868,경상남도 김해시 진영읍 진영로 235-2 1층,055-342-1212,055-342-1212,3,48,0,5,14,13,35.302469008102854,128.738919950063,운영,버클리어린이집,2013-07-08,,,
경상남도,김해시,미라주어린이집,가정,정상,50884,경상남도 김해시 김해대로1902번길 30 104동 104호(일동미라주),055-339-7942,055-339-7941,4,65,0,8,20,18,35.25394689117394,128.86586511293842,운영,,2013-07-22,,,
경상남도,김해시,리베어린이집,가정,정상,50884,경상남도 김해시 김해대로1902번길 30 101동 104호(구산동 일동미라주),055-908-9086,--,4,64,0,7,20,17,35.25394689117394,128.86586511293842,운영,,2013-09-23,,,
경상남도,김해시,아이랜드어린이집,가정,정상,50884,"경상남도 김해시 김해대로1902번길 88 107동 103호(구산동, 이진캐스빌1단지)",055-311-1279,070-7377-1270,3,62,0,7,20,13,35.249954202935896,128.86764558872474,운영,,2013-11-20,,,
경상남도,김해시,행복누리어린이집,가정,정상,50884,"경상남도 김해시 김해대로1902번길 62 204동 101호(구산동 1076, 이진캐스빌2단지)",055-903-8160,055-903-8160,3,61,0,7,20,18,35.25116219904807,128.86656810792502,운영,,2013-11-29,,,
경상남도,김해시,샤론어린이집,가정,정상,50884,"경상남도 김해시 김해대로1902번길 88 105동 101호(구산동 1077, 이진캐스빌1단지)",055-336-2229,--,3,59,0,8,20,18,35.249954202935896,128.86764558872474,운영,,2013-11-29,,,
경상남도,김해시,링컨어린이집,민간,정상,50896,경상남도 김해시 삼계중앙로13번길 93 ,055-331-1351,--,10,351,1,17,108,106,35.26722284766758,128.86260936326082,운영,,2014-01-29,,,
경상남도,김해시,굿모닝어린이집,민간,정상,50884,경상남도 김해시 김해대로 1938-13 ,055-334-6223,--,7,342,2,23,129,105,35.253889755884074,128.8667646887673,운영,,2014-02-25,,,
경상남도,김해시,가람슬기어린이집,민간,정상,50883,"경상남도 김해시 김해대로 1868 107동 101호(삼계동, 양우내안애아파트)",055-338-7364,055-338-7364,4,95,0,6,22,11,35.25805488662761,128.86338394530875,운영,,2014-03-26,,,
경상남도,김해시,현대사과나무어린이집,가정,정상,50883,"경상남도 김해시 김해대로 1870 101동 102호(삼계동, 삼계아이파크아파트)",055-311-0711,055-311-0711,4,75,0,4,19,8,35.25933590188245,128.8647009710714,운영,iparkapple.naver.com,2014-04-02,,,
경상남도,김해시,숲속미라주어린이집,민간,정상,50884,경상남도 김해시 김해대로1902번길 30 일동미라주 207동,055-337-7060,055-337-7065,7,150,1,10,49,34,35.25394689117394,128.86586511293842,운영,,2014-05-12,,,
경상남도,김해시,아이리스창어린이집,민간,정상,50884,경상남도 김해시 김해대로1902번길 88 이진캐스빌 P-101(관리동 내),055-331-2714,055-331-2714,4,112,0,9,41,30,35.24980643118083,128.86694349812868,운영,,2014-05-27,,,
경상남도,김해시,아기천사어린이집,민간,정상,50867,경상남도 김해시 진영읍 진영로26번길 20 ,010-2036-8790,070-8200-0013,3,75,0,10,22,22,35.30333545827048,128.71746847788071,미운영,,2014-06-03,,,
경상남도,김해시,에코푸름어린이집,민간,정상,50884,경상남도 김해시 김해대로1902번길 62 201동(관리동),055-314-2263,--,5,147,0,13,45,40,35.25042690511077,128.8669137841006,운영,,2014-07-31,,,
경상남도,김해시,진영명성어린이집,민간,정상,50869,경상남도 김해시 진영읍 진영로454번길 46 진영명성어린이집,055-342-1217,055-342-1218,8,229,1,8,80,53,35.29417570894276,128.7578490107969,운영,dhqxmdhqxm@hanmail.net,2015-02-26,,,
경상남도,김해시,부원푸르지오어린이집,민간,정상,50940,경상남도 김해시 김해대로 2326 1층 관리동,055-327-5521,055-327-5521,6,131,0,17,47,41,35.224853370258806,128.88398747691048,운영,,2015-03-03,,,
경상남도,김해시,아이유어린이집,민간,정상,50858,경상남도 김해시 진영읍 장등로 94 중흥S-클래스 리버티A  관리동 1층,055-343-3121,055-343-3121,5,133,0,9,45,39,35.31413676562705,128.7327861830542,운영,,2015-07-27,,,
경상남도,김해시,리버티도담어린이집,가정,정상,50858,경상남도 김해시 진영읍 장등로 94 중흥S클래스 3단지 리버티 313동 103호,070-8638-8188,070-8638-8188,5,66,0,8,20,19,37.566470,126.977963,운영,,2015-10-08,,,
경상남도,김해시,가온누리어린이집,가정,정상,50858,경상남도 김해시 진영읍 장등로 94 중흥S클래스 3단지 리버티 310동 103호,055-346-6160,055-346-6160,4,71,0,8,20,18,37.566470,126.977963,운영,nandjlove@naver.com,2015-10-08,,,
경상남도,김해시,바른나무어린이집,민간,정상,50867,경상남도 김해시 진영읍 진영산복로 20 동문굿모닝힐 1차 부4동 1층,055-346-5850,--,5,124,0,10,47,35,37.566470,126.977963,운영,,2016-04-29,,,
경상남도,김해시,진영도담도담어린이집,가정,정상,50867,경상남도 김해시 진영읍 진영산복로 20 101동 105호,055-346-6226,055-346-6220,3,62,0,7,20,18,35.303114966533784,128.7206480452544,운영,,2016-07-11,,,
경상남도,김해시,산들숲어린이집,민간,정상,50863,경상남도 김해시 진영읍 김해대로 463 진영휴먼시아6단지,055-345-1008,055-345-1009,7,258,2,12,95,63,35.307330081495394,128.74299998732172,운영,www.cafe.naver.com/3451008,2017-06-28,,,
경상남도,김해시,빛솔어린이집,가정,정상,50861,경상남도 김해시 진영읍 진산대로 61 206동 102호(이진캐스빌아파트),055-345-4550,055-345-4550,4,67,0,7,20,20,35.3096728445879,128.72417042302155,미운영,,2017-08-02,,,
경상남도,김해시,사랑나무어린이집,가정,정상,50861,경상남도 김해시 진영읍 진산대로 61 208동 102호,055-342-3047,--,3,70,0,7,20,20,35.31143061013479,128.72461452989344,운영,,2017-08-02,,,
경상남도,김해시,하늘빛어린이집,민간,정상,50858,경상남도 김해시 진영읍 장등1로31번길 7 진영휴먼빌아파트 관리동,055-345-9355,055-345-6990,6,217,0,12,49,46,37.566470,126.977963,운영,,2017-09-06,,,
경상남도,김해시,올바른어린이집,민간,정상,50863,경상남도 김해시 진영읍 김해대로 461 센텀큐브(관리동),055-343-1244,055-343-1248,4,349,1,12,81,57,35.3073295943,128.7396550851,운영,,2018-02-06,,,
경상남도,김해시,진영천년나무어린이집,국공립,정상,50864,경상남도 김해시 진영읍 김해대로 464-48 LH천년나무 아파트 2단지 관리동,055-346-3468,055-346-3469,4,243,0,11,43,39,35.3038842817,128.7395945043,운영,,2018-02-14,,,
경상남도,김해시,아이편한어린이집,민간,정상,50940,경상남도 김해시 김해대로2324번길 54-27 봉황역 e편한세상 104동 1층,055-908-5505,--,9,146,1,14,55,52,35.2252914964,128.8766700709,운영,,2018-02-23,,,
경상남도,김해시,협성휴포레어린이집,민간,정상,50868,경상남도 김해시 진영읍 진영로 284 관리동,055-274-5063,070-7357-5063,5,233,1,14,54,53,35.3016778398,128.7438697621,운영,,2018-02-28,,,
경상남도,김해시,이진아이사랑어린이집,민간,정상,50861,경상남도 김해시 진영읍 진산대로 61 이진캐스빌209동 1층,055-345-1501,--,7,147,0,14,47,45,35.3113294518,128.7256722486,운영,,2018-02-28,,,
경상남도,김해시,아이빛나라어린이집,가정,정상,50898,경상남도 김해시 해반천로168번길 7 관리동1층,055-903-1117,--,3,75,0,6,20,10,35.2640890267,128.8685369536,미운영,,2018-05-15,,,
경상남도,김해시,정어린이집,국공립,정상,51006,경상남도 김해시 금관대로910번길 53-46 ,055-323-3077,055-323-4045,7,504,1,13,99,92,35.2130064045,128.8490403788,운영,,2018-07-01,,,
경상남도,김해시,센텀Q시티어린이집,가정,정상,50966,경상남도 김해시 주촌면 선지로 85 110동 103호(센텀Q시티아파트),055-326-7836,055-326-7836,3,54,0,7,20,20,35.22967082046252,128.84706207945396,운영,,2018-10-10,,,
경상남도,김해시,원메이저 힐스테이트 어린이집,국공립,정상,51023,경상남도 김해시 율하5로 99 원메이저 힐스테이트 관리동 1층,055-333-6800,055-333-6803,6,204,1,13,77,70,35.16712740134512,128.82928016006556,미운영,,2019-01-01,,,
경상남도,김해시,원메이저 자이 어린이집,국공립,정상,51020,경상남도 김해시 율하6로 18 원메이저 자이 관리동 1층,055-333-9922,055-333-4422,5,175,1,12,66,55,35.171606825621666,128.82745982272624,미운영,,2019-01-01,,,
경상남도,김해시,원메이저 푸르지오 어린이집,국공립,정상,51022,경상남도 김해시 율하로 479 원메이저 푸르지오 관리동 1층,055-331-0088,055-331-0099,5,175,1,11,66,61,35.16737114350558,128.82537035124815,미운영,,2019-01-01,,,
경상남도,김해시,삼계어린이집,국공립,정상,50896,경상남도 김해시 가야로22번길 13 (삼계동),055-333-5112,055-333-6050,6,221,1,12,76,74,35.268648021199255,128.8631683384168,운영,,2019-01-01,,,
경상남도,김해시,베베짱플러스어린이집,국공립,정상,50824,경상남도 김해시 삼안로112번길 9-29 베베짱플러스어린이집,055-313-8420,--,6,168,1,13,49,43,35.24058830983618,128.91633401984245,운영,,2019-01-01,,,
경상남도,김해시,센텀Q시티 리베폴어린이집,민간,정상,50966,경상남도 김해시 주촌면 선지로 85 센터Q시티아파트 키즈존(어린이집),055-333-4664,055-903-3573,6,165,3,14,57,57,37.566470,126.977963,운영,,2019-02-28,,,
경상남도,김해시,덕산캐슬I 어린이집,국공립,정상,50991,경상남도 김해시 대청로 237 관리동(덕산아내에코캐슬),055-323-1157,0504-312-3719,5,128,0,11,48,40,35.19490052046898,128.79204865055166,미운영,,2019-03-01,,,
경상남도,김해시,e편한 어린이집,국공립,정상,51007,경상남도 김해시 무계로 47 장유e편한세상2차아파트 관리동,055-338-3691,--,4,148,1,13,52,44,35.1995169595889,128.81713599046148,미운영,,2019-03-01,,,
경상남도,김해시,부원역 그린코아 어린이집,국공립,정상,50925,경상남도 김해시 김해대로 2349 부원역 그린코아 더센텀 아파트 관리동,055-323-2349,--,4,100,0,10,34,34,35.22708877899212,128.88324813265046,미운영,,2019-03-01,,,
경상남도,김해시,행복숲어린이집,국공립,정상,51024,경상남도 김해시 율하5로 14 LH 행복주택아파트 관리동,055-321-0012,0505-320-0012,5,308,2,13,105,74,35.16418253691884,128.8246625644667,운영,,2019-08-01,,,
경상남도,김해시,달팽이꽃어린이집,민간,정상,50866,경상남도 김해시 진영읍 김해대로 258 한림풀에버 1단지 103동 1층 관리동,055-343-9003,055-343-9003,5,63,0,9,23,21,35.306627623387236,128.71904862714172,운영,,2019-08-08,,,
경상남도,김해시,모아어린이집,국공립,정상,50827,경상남도 김해시 김해대로2715번길 23-1 ,055-329-7008,055-329-7009,7,180,1,11,49,48,35.22990208075199,128.92304037988893,운영,help0035@hanmail.net,2019-09-01,,,
경상남도,김해시,협성엘리시안어린이집,국공립,정상,50959,경상남도 김해시 분성로 4 106동 1층,055-338-1201,055-338-1208,5,121,0,12,45,38,35.23246274844206,128.8477679202357,미운영,,2019-11-01,,,
경상남도,김해시,센텀또래어린이집,가정,정상,50966,경상남도 김해시 선지로 85 102동 101호(김해센텀Q시티아파트),055-338-3383,--,5,79,0,8,20,20,35.23039638925501,128.84602138927735,운영,,2019-12-16,,,
경상남도,김해시,경상남도사회서비스원김해시중흥어린이집,국공립,정상,50861,경상남도 김해시 진영읍 진산대로 59 중흥s클래스에코시티 관리동,055-342-8202,055-342-8201,6,194,4,13,73,61,35.3096594472218,128.7225814705659,미운영,,2020-01-01,,,
경상남도,김해시,오성과한음어린이집,국공립,정상,50963,경상남도 김해시 흥동로 131 ,055-326-3763,--,6,135,1,12,46,45,35.222194750921666,128.86312698265715,운영,khm080100,2020-01-01,,,
경상남도,김해시,황토참좋은어린이집,국공립,정상,50823,경상남도 김해시 삼안로132번길 15-10 ,055-332-9225,--,7,271,2,9,98,56,35.24168152830215,128.91644213149274,운영,,2020-01-01,,,
경상남도,김해시,숲속화인어린이집,국공립,정상,50815,경상남도 김해시 삼안로 250 ,055-322-1004,055-337-7538,10,448,2,14,169,71,35.25026936231208,128.91048398794297,운영,,2020-01-01,,,
경상남도,김해시,율하자이어린이집,국공립,정상,51022,경상남도 김해시 율하6로 17 율하자이힐스테이트 관리동,055-339-2252,--,5,259,1,11,95,64,37.566470,126.977963,미운영,,2020-02-01,,,
경상남도,김해시,센텀초아어린이집,가정,정상,50966,경상남도 김해시 선지로 85 115동 104호(김해센텀Q시티아파트),055-328-2907,055-328-2907,4,54,0,6,20,17,35.22901033574231,128.84826622808663,운영,,2020-03-02,,,
경상남도,김해시,주촌제니스어린이집,국공립,정상,50887,경상남도 김해시 주선로 34 ,055-339-0401,055-339-0402,6,261,1,12,98,66,35.23625156402633,128.84471242610223,미운영,,2020-04-01,,,
경상남도,김해시,경상남도사회서비스원김해시센텀제니스어린이집,국공립,정상,51025,경상남도 김해시 천곡로 26 ,055-334-8255,055-334-8266,5,206,1,14,78,72,35.23193322020335,128.83459493410416,미운영,,2020-04-01,,,
경상남도,김해시,율산어린이집,국공립,정상,51024,경상남도 김해시 율하5로 48 ,055-335-1004,--,6,181,2,16,68,58,35.16267845969738,128.82952893905147,운영,,2020-04-01,,,
경상남도,김해시,시티프라디움어린이집,국공립,정상,51023,경상남도 김해시 율하5로 11 ,055-337-2051,055-337-2050,6,196,3,13,74,74,35.166102806718,128.82640928561662,미운영,,2020-04-01,,,
경상남도,김해시,경동리인어린이집,국공립,정상,51001,경상남도 김해시 장유로334번길 9 ,055-331-1200,--,4,131,0,12,45,39,35.19586481346113,128.8168378012426,미운영,,2020-04-01,,,
경상남도,김해시,청록어린이집,국공립,정상,50928,경상남도 김해시 활천로74번길 22 (삼정동),055-334-2050,055-334-5657,6,286,1,12,99,64,35.234203879367385,128.8954246724336,운영,chungrok.kidsnote.ac,2020-07-01,,,
경상남도,김해시,리슈빌어린이집,국공립,정상,51024,경상남도 김해시 율하5로 46 리슈빌더스테이아파트 관리동,055-313-3337,055-313-3307,5,174,1,14,65,54,35.163382116577374,128.82724284512065,미운영,,2020-08-01,,,
경상남도,김해시,김해서부경찰서어린이집,직장,정상,51004,경상남도 김해시 계동로 183 김해서부경찰서,055-337-5649,055-337-5648,5,242,1,14,60,36,35.190175429496996,128.79801018650343,미운영,https://hansol-ghsbpolice.kidsnote.ac,2020-08-31,,,
경상남도,김해시,삼계서희스타힐스어린이집,국공립,정상,50830,경상남도 김해시 해반천로 280 ,055-314-7590,055-314-7590,3,116,1,7,35,31,34.929761202093054,128.4081753466578,미운영,,2021-02-03,,,
경상남도,김해시,힐스테이트수어린이집,국공립,정상,51005,경상남도 김해시 관동로27번길 39 ,055-312-7486,055-312-7486,5,122,1,9,46,26,35.17844753134913,128.81182899768012,미운영,,2021-02-08,,,
경상남도,김해시,앤어린이집,국공립,정상,50897,"경상남도 김해시 삼계로 232 115동 104호(삼계동, 분성마을현대아이파크1차아파트)",055-339-7890,055-339-7825,3,63,0,8,20,20,35.26676079422086,128.86837745327497,운영,,2021-03-01,,,
경상남도,김해시,오해피어린이집,가정,정상,50883,경상남도 김해시 김해대로 1870 103동 104호 (삼계아이파크 관리동),055-904-5279,055-901-9401,3,82,0,4,20,10,37.566470,126.977963,미운영,,2021-05-21,,,
경상남도,김해시,무계스타힐스어린이집,국공립,정상,51007,경상남도 김해시 장유로307번길 17 관리동,055-902-1366,055-902-1377,3,95,1,9,30,28,37.566470,126.977963,미운영,,2021-09-01,,,
경상남도,김해시,장유삼정그린코아어린이집,국공립,정상,51007,경상남도 김해시 무계한빛길 50 관리동,055-327-3353,--,4,72,1,8,27,14,35.20028799612894,128.82085043982056,미운영,,2021-09-01,,,
경상남도,김해시,아이별어린이집,가정,정상,50830,경상남도 김해시 두곡로 15 104동104호(한라비발디센텀시티),055-903-0634,--,3,44,0,4,16,14,35.272066601131286,128.86778779027696,미운영,,2022-03-11,,,
경상남도,김해시,해반천한라비발디어린이집,국공립,정상,50896,경상남도 김해시 김해대로1765번길 7 관리동,055-337-2322,055-338-2322,5,104,1,6,39,18,35.26918770615741,128.8611862887453,미운영,,2022-05-01,,,
경상남도,김해시,쌍용더플래티넘어린이집,국공립,정상,50960,경상남도 김해시 금관대로1134번길 16 관리동,055-326-3575,055-326-3576,4,77,1,10,29,23,37.566470,126.977963,미운영,,2022-05-01,,,
경상남도,김해시,구산애기똥풀어린이집,민간,정상,50907,경상남도 김해시 가락로294번길 17-1 구산5주공아파트 관리동,055-312-6562,--,4,78,0,6,29,18,37.566470,126.977963,운영,,2022-08-01,,,
경상남도,김해시,삼계한라비발디센텀시티어린이집,국공립,정상,50830,경상남도 김해시 두곡로 15 삼계한라비발디센텀시티아파트 관리동,055-324-1253,055-324-1254,6,207,1,10,78,32,35.27153268323521,128.8669101628805,미운영,,2022-09-01,,,
경상남도,김해시,연지공원푸르지오어린이집,국공립,정상,50885,경상남도 김해시 금관대로 1407 연지공원푸르지오아파트 관리동,055-324-7942,055-324-7943,6,209,1,10,79,33,35.248103778069954,128.86562023242467,미운영,,2022-09-01,,,
